[
    {
        "city": "Kyiv",
        "lat": "50.4500",
        "lng": "30.5233",
        "country": "Ukraine",
        "iso2": "UA",
        "admin_name": "Kyiv, Misto",
        "capital": "primary",
        "population": "2963199",
        "population_proper": "2962180"
    },
    {
        "city": "Kharkiv",
        "lat": "49.9925",
        "lng": "36.2311",
        "country": "Ukraine",
        "iso2": "UA",
        "admin_name": "Kharkivska Oblast",
        "capital": "admin",
        "population": "1446107",
        "population_proper": "1433886"
    },
    {
        "city": "Odesa",
        "lat": "46.4775",
        "lng": "30.7326",
        "country": "Ukraine",
        "iso2": "UA",
        "admin_name": "Odeska Oblast",
        "capital": "admin",
        "population": "1017699",
        "population_proper": "1015826"
    },
    {
        "city": "Dnipro",
        "lat": "48.4675",
        "lng": "35.0400",
        "country": "Ukraine",
        "iso2": "UA",
        "admin_name": "Dnipropetrovska Oblast",
        "capital": "admin",
        "population": "980948",
        "population_proper": "980948"
    },
    {
        "city": "Donetsk",
        "lat": "48.0028",
        "lng": "37.8053",
        "country": "Ukraine",
        "iso2": "UA",
        "admin_name": "Donetska Oblast",
        "capital": "admin",
        "population": "929063",
        "population_proper": "929063"
    },
    {
        "city": "Zaporizhzhia",
        "lat": "47.8500",
        "lng": "35.1175",
        "country": "Ukraine",
        "iso2": "UA",
        "admin_name": "Zaporizka Oblast",
        "capital": "admin",
        "population": "741717",
        "population_proper": "710052"
    },
    {
        "city": "Lviv",
        "lat": "49.8425",
        "lng": "24.0322",
        "country": "Ukraine",
        "iso2": "UA",
        "admin_name": "Lvivska Oblast",
        "capital": "admin",
        "population": "724314",
        "population_proper": "724314"
    },
    {
        "city": "Kryvyi Rih",
        "lat": "47.9086",
        "lng": "33.3433",
        "country": "Ukraine",
        "iso2": "UA",
        "admin_name": "Dnipropetrovska Oblast",
        "capital": "minor",
        "population": "629695",
        "population_proper": "603237"
    },
    {
        "city": "Sevastopol",
        "lat": "44.6050",
        "lng": "33.5225",
        "country": "Ukraine",
        "iso2": "UA",
        "admin_name": "Sevastopol, Misto",
        "capital": "admin",
        "population": "522057",
        "population_proper": "522057"
    },
    {
        "city": "Mykolaiv",
        "lat": "46.9750",
        "lng": "31.9950",
        "country": "Ukraine",
        "iso2": "UA",
        "admin_name": "Mykolaivska Oblast",
        "capital": "admin",
        "population": "498748",
        "population_proper": "470011"
    },
    {
        "city": "Mariupol",
        "lat": "47.0958",
        "lng": "37.5494",
        "country": "Ukraine",
        "iso2": "UA",
        "admin_name": "Donetska Oblast",
        "capital": "minor",
        "population": "449498",
        "population_proper": "449498"
    },
    {
        "city": "Luhansk",
        "lat": "48.5667",
        "lng": "39.3333",
        "country": "Ukraine",
        "iso2": "UA",
        "admin_name": "Luhanska Oblast",
        "capital": "admin",
        "population": "417990",
        "population_proper": "417990"
    },
    {
        "city": "Vinnytsia",
        "lat": "49.2333",
        "lng": "28.4833",
        "country": "Ukraine",
        "iso2": "UA",
        "admin_name": "Vinnytska Oblast",
        "capital": "admin",
        "population": "371855",
        "population_proper": "370601"
    },
    {
        "city": "Makiivka",
        "lat": "48.0556",
        "lng": "37.9611",
        "country": "Ukraine",
        "iso2": "UA",
        "admin_name": "Donetska Oblast",
        "capital": "minor",
        "population": "343158",
        "population_proper": "343158"
    },
    {
        "city": "Simferopol",
        "lat": "44.9484",
        "lng": "34.1000",
        "country": "Ukraine",
        "iso2": "UA",
        "admin_name": "Krym, Avtonomna Respublika",
        "capital": "admin",
        "population": "341799",
        "population_proper": "340540"
    },
    {
        "city": "Poltava",
        "lat": "49.5894",
        "lng": "34.5514",
        "country": "Ukraine",
        "iso2": "UA",
        "admin_name": "Poltavska Oblast",
        "capital": "admin",
        "population": "317847",
        "population_proper": "283402"
    },
    {
        "city": "Chernihiv",
        "lat": "51.4939",
        "lng": "31.2947",
        "country": "Ukraine",
        "iso2": "UA",
        "admin_name": "Chernihivska Oblast",
        "capital": "admin",
        "population": "294522",
        "population_proper": "286899"
    },
    {
        "city": "Kherson",
        "lat": "46.6425",
        "lng": "32.6250",
        "country": "Ukraine",
        "iso2": "UA",
        "admin_name": "Khersonska Oblast",
        "capital": "admin",
        "population": "291428",
        "population_proper": "283649"
    },
    {
        "city": "Cherkasy",
        "lat": "49.4444",
        "lng": "32.0597",
        "country": "Ukraine",
        "iso2": "UA",
        "admin_name": "Cherkaska Oblast",
        "capital": "admin",
        "population": "276360",
        "population_proper": "269836"
    },
    {
        "city": "Khmelnytskyi",
        "lat": "49.4167",
        "lng": "27.0000",
        "country": "Ukraine",
        "iso2": "UA",
        "admin_name": "Khmelnytska Oblast",
        "capital": "admin",
        "population": "274176",
        "population_proper": "274176"
    },
    {
        "city": "Chernivtsi",
        "lat": "48.3000",
        "lng": "25.9333",
        "country": "Ukraine",
        "iso2": "UA",
        "admin_name": "Chernivetska Oblast",
        "capital": "admin",
        "population": "266550",
        "population_proper": "265471"
    },
    {
        "city": "Sumy",
        "lat": "50.9167",
        "lng": "34.7500",
        "country": "Ukraine",
        "iso2": "UA",
        "admin_name": "Sumska Oblast",
        "capital": "admin",
        "population": "265758",
        "population_proper": "265758"
    },
    {
        "city": "Zhytomyr",
        "lat": "50.2500",
        "lng": "28.6667",
        "country": "Ukraine",
        "iso2": "UA",
        "admin_name": "Zhytomyrska Oblast",
        "capital": "admin",
        "population": "264452",
        "population_proper": "263507"
    },
    {
        "city": "Horlivka",
        "lat": "48.3336",
        "lng": "38.0925",
        "country": "Ukraine",
        "iso2": "UA",
        "admin_name": "Donetska Oblast",
        "capital": "minor",
        "population": "256714",
        "population_proper": "256714"
    },
    {
        "city": "Rivne",
        "lat": "50.6192",
        "lng": "26.2519",
        "country": "Ukraine",
        "iso2": "UA",
        "admin_name": "Rivnenska Oblast",
        "capital": "admin",
        "population": "246574",
        "population_proper": "245289"
    },
    {
        "city": "Ivano-Frankivsk",
        "lat": "48.9228",
        "lng": "24.7106",
        "country": "Ukraine",
        "iso2": "UA",
        "admin_name": "Ivano-Frankivska Oblast",
        "capital": "admin",
        "population": "238196",
        "population_proper": "238196"
    },
    {
        "city": "Kamianske",
        "lat": "48.5167",
        "lng": "34.6167",
        "country": "Ukraine",
        "iso2": "UA",
        "admin_name": "Dnipropetrovska Oblast",
        "capital": "minor",
        "population": "235066",
        "population_proper": "229794"
    },
    {
        "city": "Kropyvnytskyi",
        "lat": "48.5000",
        "lng": "32.2667",
        "country": "Ukraine",
        "iso2": "UA",
        "admin_name": "Kirovohradska Oblast",
        "capital": "admin",
        "population": "227413",
        "population_proper": "227413"
    },
    {
        "city": "Ternopil",
        "lat": "49.5667",
        "lng": "25.6000",
        "country": "Ukraine",
        "iso2": "UA",
        "admin_name": "Ternopilska Oblast",
        "capital": "admin",
        "population": "225238",
        "population_proper": "225238"
    },
    {
        "city": "Kremenchuk",
        "lat": "49.0631",
        "lng": "33.4039",
        "country": "Ukraine",
        "iso2": "UA",
        "admin_name": "Poltavska Oblast",
        "capital": "minor",
        "population": "220174",
        "population_proper": "220174"
    },
    {
        "city": "Lutsk",
        "lat": "50.7500",
        "lng": "25.3358",
        "country": "Ukraine",
        "iso2": "UA",
        "admin_name": "Volynska Oblast",
        "capital": "admin",
        "population": "217197",
        "population_proper": "217197"
    },
    {
        "city": "Bila Tserkva",
        "lat": "49.7956",
        "lng": "30.1167",
        "country": "Ukraine",
        "iso2": "UA",
        "admin_name": "Kyivska Oblast",
        "capital": "minor",
        "population": "208944",
        "population_proper": "208944"
    },
    {
        "city": "Kramatorsk",
        "lat": "48.7392",
        "lng": "37.5839",
        "country": "Ukraine",
        "iso2": "UA",
        "admin_name": "Donetska Oblast",
        "capital": "minor",
        "population": "159445",
        "population_proper": "147145"
    },
    {
        "city": "Melitopol",
        "lat": "46.8489",
        "lng": "35.3675",
        "country": "Ukraine",
        "iso2": "UA",
        "admin_name": "Zaporizka Oblast",
        "capital": "minor",
        "population": "154992",
        "population_proper": "154992"
    },
    {
        "city": "Sievierodonetsk",
        "lat": "48.9481",
        "lng": "38.4933",
        "country": "Ukraine",
        "iso2": "UA",
        "admin_name": "Luhanska Oblast",
        "capital": "minor",
        "population": "150000",
        "population_proper": "150000"
    },
    {
        "city": "Kerch",
        "lat": "45.3619",
        "lng": "36.4711",
        "country": "Ukraine",
        "iso2": "UA",
        "admin_name": "Krym, Avtonomna Respublika",
        "capital": "minor",
        "population": "149566",
        "population_proper": "149566"
    },
    {
        "city": "Drohobych",
        "lat": "49.3500",
        "lng": "23.5000",
        "country": "Ukraine",
        "iso2": "UA",
        "admin_name": "Lvivska Oblast",
        "capital": "minor",
        "population": "124269",
        "population_proper": "74610"
    },
    {
        "city": "Khrustalnyi",
        "lat": "48.1214",
        "lng": "38.9453",
        "country": "Ukraine",
        "iso2": "UA",
        "admin_name": "Luhanska Oblast",
        "capital": "",
        "population": "124000",
        "population_proper": "124000"
    },
    {
        "city": "Uzhhorod",
        "lat": "48.6239",
        "lng": "22.2950",
        "country": "Ukraine",
        "iso2": "UA",
        "admin_name": "Zakarpatska Oblast",
        "capital": "admin",
        "population": "114897",
        "population_proper": "114897"
    },
    {
        "city": "Berdiansk",
        "lat": "46.7556",
        "lng": "36.7889",
        "country": "Ukraine",
        "iso2": "UA",
        "admin_name": "Zaporizka Oblast",
        "capital": "minor",
        "population": "114205",
        "population_proper": "107928"
    },
    {
        "city": "Sloviansk",
        "lat": "48.8533",
        "lng": "37.6059",
        "country": "Ukraine",
        "iso2": "UA",
        "admin_name": "Donetska Oblast",
        "capital": "",
        "population": "113196",
        "population_proper": "113196"
    },
    {
        "city": "Nikopol",
        "lat": "47.5667",
        "lng": "34.4000",
        "country": "Ukraine",
        "iso2": "UA",
        "admin_name": "Dnipropetrovska Oblast",
        "capital": "minor",
        "population": "110669",
        "population_proper": "107464"
    },
    {
        "city": "Brovary",
        "lat": "50.5111",
        "lng": "30.7900",
        "country": "Ukraine",
        "iso2": "UA",
        "admin_name": "Kyivska Oblast",
        "capital": "minor",
        "population": "109473",
        "population_proper": "109473"
    },
    {
        "city": "Yevpatoriia",
        "lat": "45.1939",
        "lng": "33.3681",
        "country": "Ukraine",
        "iso2": "UA",
        "admin_name": "Krym, Avtonomna Respublika",
        "capital": "minor",
        "population": "108248",
        "population_proper": "108248"
    },
    {
        "city": "Pavlohrad",
        "lat": "48.5200",
        "lng": "35.8700",
        "country": "Ukraine",
        "iso2": "UA",
        "admin_name": "Dnipropetrovska Oblast",
        "capital": "minor",
        "population": "106082",
        "population_proper": "103037"
    },
    {
        "city": "Alchevsk",
        "lat": "48.4778",
        "lng": "38.7978",
        "country": "Ukraine",
        "iso2": "UA",
        "admin_name": "Luhanska Oblast",
        "capital": "minor",
        "population": "105398",
        "population_proper": "105398"
    },
    {
        "city": "Konotop",
        "lat": "51.2369",
        "lng": "33.2027",
        "country": "Ukraine",
        "iso2": "UA",
        "admin_name": "Sumska Oblast",
        "capital": "minor",
        "population": "103547",
        "population_proper": "84787"
    },
    {
        "city": "Kamianets-Podilskyi",
        "lat": "48.6806",
        "lng": "26.5806",
        "country": "Ukraine",
        "iso2": "UA",
        "admin_name": "Khmelnytska Oblast",
        "capital": "minor",
        "population": "100462",
        "population_proper": "100462"
    },
    {
        "city": "Lysychansk",
        "lat": "48.9169",
        "lng": "38.4306",
        "country": "Ukraine",
        "iso2": "UA",
        "admin_name": "Luhanska Oblast",
        "capital": "",
        "population": "96161",
        "population_proper": "96161"
    },
    {
        "city": "Dovzhansk",
        "lat": "48.0778",
        "lng": "39.6472",
        "country": "Ukraine",
        "iso2": "UA",
        "admin_name": "Luhanska Oblast",
        "capital": "minor",
        "population": "95153",
        "population_proper": "95153"
    },
    {
        "city": "Mukacheve",
        "lat": "48.4414",
        "lng": "22.7136",
        "country": "Ukraine",
        "iso2": "UA",
        "admin_name": "Zakarpatska Oblast",
        "capital": "minor",
        "population": "86257",
        "population_proper": "86257"
    },
    {
        "city": "Uman",
        "lat": "48.7500",
        "lng": "30.2167",
        "country": "Ukraine",
        "iso2": "UA",
        "admin_name": "Cherkaska Oblast",
        "capital": "minor",
        "population": "82762",
        "population_proper": "82154"
    },
    {
        "city": "Chervonohrad",
        "lat": "50.3822",
        "lng": "24.2275",
        "country": "Ukraine",
        "iso2": "UA",
        "admin_name": "Lvivska Oblast",
        "capital": "minor",
        "population": "82395",
        "population_proper": "82395"
    },
    {
        "city": "Oleksandriia",
        "lat": "48.6667",
        "lng": "33.1167",
        "country": "Ukraine",
        "iso2": "UA",
        "admin_name": "Kirovohradska Oblast",
        "capital": "minor",
        "population": "82345",
        "population_proper": "82345"
    },
    {
        "city": "Krasnyi Luch",
        "lat": "48.1333",
        "lng": "38.9333",
        "country": "Ukraine",
        "iso2": "UA",
        "admin_name": "Luhanska Oblast",
        "capital": "",
        "population": "79533",
        "population_proper": "79533"
    },
    {
        "city": "Yalta",
        "lat": "44.4994",
        "lng": "34.1700",
        "country": "Ukraine",
        "iso2": "UA",
        "admin_name": "Krym, Avtonomna Respublika",
        "capital": "",
        "population": "79458",
        "population_proper": "79272"
    },
    {
        "city": "Yenakiieve",
        "lat": "48.2311",
        "lng": "38.2053",
        "country": "Ukraine",
        "iso2": "UA",
        "admin_name": "Donetska Oblast",
        "capital": "",
        "population": "79348",
        "population_proper": "79348"
    },
    {
        "city": "Shostka",
        "lat": "51.8657",
        "lng": "33.4766",
        "country": "Ukraine",
        "iso2": "UA",
        "admin_name": "Sumska Oblast",
        "capital": "minor",
        "population": "76788",
        "population_proper": "76788"
    },
    {
        "city": "Berdychiv",
        "lat": "49.8919",
        "lng": "28.6000",
        "country": "Ukraine",
        "iso2": "UA",
        "admin_name": "Zhytomyrska Oblast",
        "capital": "minor",
        "population": "76229",
        "population_proper": "73999"
    },
    {
        "city": "Bakhmut",
        "lat": "48.5947",
        "lng": "38.0008",
        "country": "Ukraine",
        "iso2": "UA",
        "admin_name": "Donetska Oblast",
        "capital": "minor",
        "population": "75798",
        "population_proper": "71094"
    },
    {
        "city": "Stakhanov",
        "lat": "48.5681",
        "lng": "38.6586",
        "country": "Ukraine",
        "iso2": "UA",
        "admin_name": "Luhanska Oblast",
        "capital": "",
        "population": "75745",
        "population_proper": "75745"
    },
    {
        "city": "Nizhyn",
        "lat": "51.0474",
        "lng": "31.8805",
        "country": "Ukraine",
        "iso2": "UA",
        "admin_name": "Chernihivska Oblast",
        "capital": "minor",
        "population": "73283",
        "population_proper": "66981"
    },
    {
        "city": "Kostiantynivka",
        "lat": "48.5333",
        "lng": "37.7167",
        "country": "Ukraine",
        "iso2": "UA",
        "admin_name": "Donetska Oblast",
        "capital": "",
        "population": "72888",
        "population_proper": "72888"
    },
    {
        "city": "Izmail",
        "lat": "45.3517",
        "lng": "28.8364",
        "country": "Ukraine",
        "iso2": "UA",
        "admin_name": "Odeska Oblast",
        "capital": "minor",
        "population": "71411",
        "population_proper": "70731"
    },
    {
        "city": "Novomoskovsk",
        "lat": "48.6328",
        "lng": "35.2239",
        "country": "Ukraine",
        "iso2": "UA",
        "admin_name": "Dnipropetrovska Oblast",
        "capital": "minor",
        "population": "70749",
        "population_proper": "70230"
    },
    {
        "city": "Fedosiia",
        "lat": "45.0489",
        "lng": "35.3792",
        "country": "Ukraine",
        "iso2": "UA",
        "admin_name": "Krym, Avtonomna Respublika",
        "capital": "",
        "population": "69145",
        "population_proper": "69145"
    },
    {
        "city": "Kovel",
        "lat": "51.2167",
        "lng": "24.7167",
        "country": "Ukraine",
        "iso2": "UA",
        "admin_name": "Volynska Oblast",
        "capital": "minor",
        "population": "69089",
        "population_proper": "67991"
    },
    {
        "city": "Smila",
        "lat": "49.2167",
        "lng": "31.8667",
        "country": "Ukraine",
        "iso2": "UA",
        "admin_name": "Cherkaska Oblast",
        "capital": "minor",
        "population": "68536",
        "population_proper": "21341"
    },
    {
        "city": "Kalush",
        "lat": "49.0442",
        "lng": "24.3597",
        "country": "Ukraine",
        "iso2": "UA",
        "admin_name": "Ivano-Frankivska Oblast",
        "capital": "minor",
        "population": "66406",
        "population_proper": "66406"
    },
    {
        "city": "Korosten",
        "lat": "50.9500",
        "lng": "28.6500",
        "country": "Ukraine",
        "iso2": "UA",
        "admin_name": "Zhytomyrska Oblast",
        "capital": "minor",
        "population": "63525",
        "population_proper": "63525"
    },
    {
        "city": "Pokrovsk",
        "lat": "48.2828",
        "lng": "37.1828",
        "country": "Ukraine",
        "iso2": "UA",
        "admin_name": "Donetska Oblast",
        "capital": "minor",
        "population": "63437",
        "population_proper": "63437"
    },
    {
        "city": "Pervomaisk",
        "lat": "48.0500",
        "lng": "30.8500",
        "country": "Ukraine",
        "iso2": "UA",
        "admin_name": "Mykolaivska Oblast",
        "capital": "minor",
        "population": "63377",
        "population_proper": "63377"
    },
    {
        "city": "Boryspil",
        "lat": "50.3500",
        "lng": "30.9500",
        "country": "Ukraine",
        "iso2": "UA",
        "admin_name": "Kyivska Oblast",
        "capital": "minor",
        "population": "62281",
        "population_proper": "62281"
    },
    {
        "city": "Kolomyia",
        "lat": "48.5167",
        "lng": "25.0333",
        "country": "Ukraine",
        "iso2": "UA",
        "admin_name": "Ivano-Frankivska Oblast",
        "capital": "minor",
        "population": "61269",
        "population_proper": "61269"
    },
    {
        "city": "Rubizhne",
        "lat": "49.0336",
        "lng": "38.3722",
        "country": "Ukraine",
        "iso2": "UA",
        "admin_name": "Luhanska Oblast",
        "capital": "",
        "population": "59951",
        "population_proper": "59951"
    },
    {
        "city": "Chornomorsk",
        "lat": "46.3017",
        "lng": "30.6569",
        "country": "Ukraine",
        "iso2": "UA",
        "admin_name": "Odeska Oblast",
        "capital": "",
        "population": "59800",
        "population_proper": "57983"
    },
    {
        "city": "Khartsyzk",
        "lat": "48.0333",
        "lng": "38.1500",
        "country": "Ukraine",
        "iso2": "UA",
        "admin_name": "Donetska Oblast",
        "capital": "",
        "population": "59763",
        "population_proper": "59763"
    },
    {
        "city": "Druzhkivka",
        "lat": "48.6203",
        "lng": "37.5278",
        "country": "Ukraine",
        "iso2": "UA",
        "admin_name": "Donetska Oblast",
        "capital": "",
        "population": "59400",
        "population_proper": "59400"
    },
    {
        "city": "Stryi",
        "lat": "49.2500",
        "lng": "23.8500",
        "country": "Ukraine",
        "iso2": "UA",
        "admin_name": "Lvivska Oblast",
        "capital": "minor",
        "population": "59325",
        "population_proper": "55100"
    },
    {
        "city": "Bilhorod-Dnistrovskyi",
        "lat": "46.1833",
        "lng": "30.3500",
        "country": "Ukraine",
        "iso2": "UA",
        "admin_name": "Odeska Oblast",
        "capital": "minor",
        "population": "57210",
        "population_proper": "57210"
    },
    {
        "city": "Irpin",
        "lat": "50.5167",
        "lng": "30.2500",
        "country": "Ukraine",
        "iso2": "UA",
        "admin_name": "Kyivska Oblast",
        "capital": "",
        "population": "56806",
        "population_proper": "56806"
    },
    {
        "city": "Novohrad-Volynskyi",
        "lat": "50.5833",
        "lng": "27.6333",
        "country": "Ukraine",
        "iso2": "UA",
        "admin_name": "Zhytomyrska Oblast",
        "capital": "minor",
        "population": "56288",
        "population_proper": "55463"
    },
    {
        "city": "Lozova",
        "lat": "48.8892",
        "lng": "36.3161",
        "country": "Ukraine",
        "iso2": "UA",
        "admin_name": "Kharkivska Oblast",
        "capital": "minor",
        "population": "55827",
        "population_proper": "54026"
    },
    {
        "city": "Antratsyt",
        "lat": "48.1167",
        "lng": "39.0833",
        "country": "Ukraine",
        "iso2": "UA",
        "admin_name": "Luhanska Oblast",
        "capital": "",
        "population": "54640",
        "population_proper": "52353"
    },
    {
        "city": "Enerhodar",
        "lat": "47.4989",
        "lng": "34.6558",
        "country": "Ukraine",
        "iso2": "UA",
        "admin_name": "Zaporizka Oblast",
        "capital": "minor",
        "population": "53567",
        "population_proper": "52887"
    },
    {
        "city": "Chystiakove",
        "lat": "48.0219",
        "lng": "38.6264",
        "country": "Ukraine",
        "iso2": "UA",
        "admin_name": "Donetska Oblast",
        "capital": "",
        "population": "53462",
        "population_proper": "53462"
    },
    {
        "city": "Pryluky",
        "lat": "50.6000",
        "lng": "32.4000",
        "country": "Ukraine",
        "iso2": "UA",
        "admin_name": "Chernihivska Oblast",
        "capital": "minor",
        "population": "53395",
        "population_proper": "53395"
    },
    {
        "city": "Novovolynsk",
        "lat": "50.7333",
        "lng": "24.1667",
        "country": "Ukraine",
        "iso2": "UA",
        "admin_name": "Volynska Oblast",
        "capital": "",
        "population": "52188",
        "population_proper": "50417"
    },
    {
        "city": "Horishni Plavni",
        "lat": "49.0167",
        "lng": "33.6667",
        "country": "Ukraine",
        "iso2": "UA",
        "admin_name": "Poltavska Oblast",
        "capital": "",
        "population": "52167",
        "population_proper": "52167"
    },
    {
        "city": "Myrnohrad",
        "lat": "48.2911",
        "lng": "37.2681",
        "country": "Ukraine",
        "iso2": "UA",
        "admin_name": "Donetska Oblast",
        "capital": "",
        "population": "50360",
        "population_proper": "50360"
    },
    {
        "city": "Shakhtarsk",
        "lat": "48.0333",
        "lng": "38.4833",
        "country": "Ukraine",
        "iso2": "UA",
        "admin_name": "Donetska Oblast",
        "capital": "minor",
        "population": "49482",
        "population_proper": "49482"
    },
    {
        "city": "Okhtyrka",
        "lat": "50.3074",
        "lng": "34.9016",
        "country": "Ukraine",
        "iso2": "UA",
        "admin_name": "Sumska Oblast",
        "capital": "minor",
        "population": "47971",
        "population_proper": "47971"
    },
    {
        "city": "Brianka",
        "lat": "48.5133",
        "lng": "38.6431",
        "country": "Ukraine",
        "iso2": "UA",
        "admin_name": "Luhanska Oblast",
        "capital": "",
        "population": "47512",
        "population_proper": "44987"
    },
    {
        "city": "Snizhne",
        "lat": "48.0167",
        "lng": "38.7667",
        "country": "Ukraine",
        "iso2": "UA",
        "admin_name": "Donetska Oblast",
        "capital": "",
        "population": "47259",
        "population_proper": "47259"
    },
    {
        "city": "Marhanets",
        "lat": "47.6480",
        "lng": "34.6167",
        "country": "Ukraine",
        "iso2": "UA",
        "admin_name": "Dnipropetrovska Oblast",
        "capital": "minor",
        "population": "47141",
        "population_proper": "45718"
    },
    {
        "city": "Rovenky",
        "lat": "48.0833",
        "lng": "39.3667",
        "country": "Ukraine",
        "iso2": "UA",
        "admin_name": "Luhanska Oblast",
        "capital": "",
        "population": "46734",
        "population_proper": "46734"
    },
    {
        "city": "Fastiv",
        "lat": "50.0747",
        "lng": "29.9181",
        "country": "Ukraine",
        "iso2": "UA",
        "admin_name": "Kyivska Oblast",
        "capital": "minor",
        "population": "45907",
        "population_proper": "45907"
    },
    {
        "city": "Lubny",
        "lat": "50.0186",
        "lng": "32.9869",
        "country": "Ukraine",
        "iso2": "UA",
        "admin_name": "Poltavska Oblast",
        "capital": "minor",
        "population": "45786",
        "population_proper": "45786"
    },
    {
        "city": "Svitlovodsk",
        "lat": "49.0503",
        "lng": "33.2419",
        "country": "Ukraine",
        "iso2": "UA",
        "admin_name": "Kirovohradska Oblast",
        "capital": "minor",
        "population": "45312",
        "population_proper": "45312"
    },
    {
        "city": "Nova Kakhovka",
        "lat": "46.7550",
        "lng": "33.3750",
        "country": "Ukraine",
        "iso2": "UA",
        "admin_name": "Khersonska Oblast",
        "capital": "",
        "population": "45069",
        "population_proper": "45069"
    },
    {
        "city": "Zhovti Vody",
        "lat": "48.3500",
        "lng": "33.5167",
        "country": "Ukraine",
        "iso2": "UA",
        "admin_name": "Dnipropetrovska Oblast",
        "capital": "",
        "population": "44766",
        "population_proper": "44766"
    },
    {
        "city": "Krasnodon",
        "lat": "48.3000",
        "lng": "39.7333",
        "country": "Ukraine",
        "iso2": "UA",
        "admin_name": "Luhanska Oblast",
        "capital": "",
        "population": "43683",
        "population_proper": "43683"
    },
    {
        "city": "Varash",
        "lat": "51.3444",
        "lng": "25.8508",
        "country": "Ukraine",
        "iso2": "UA",
        "admin_name": "Rivnenska Oblast",
        "capital": "minor",
        "population": "41711",
        "population_proper": "41711"
    },
    {
        "city": "Shepetivka",
        "lat": "50.1833",
        "lng": "27.0667",
        "country": "Ukraine",
        "iso2": "UA",
        "admin_name": "Khmelnytska Oblast",
        "capital": "minor",
        "population": "41415",
        "population_proper": "41415"
    },
    {
        "city": "Romny",
        "lat": "50.7428",
        "lng": "33.4879",
        "country": "Ukraine",
        "iso2": "UA",
        "admin_name": "Sumska Oblast",
        "capital": "minor",
        "population": "40316",
        "population_proper": "40316"
    },
    {
        "city": "Myrhorod",
        "lat": "49.9667",
        "lng": "33.6000",
        "country": "Ukraine",
        "iso2": "UA",
        "admin_name": "Poltavska Oblast",
        "capital": "minor",
        "population": "40160",
        "population_proper": "40160"
    },
    {
        "city": "Podilsk",
        "lat": "47.7419",
        "lng": "29.5350",
        "country": "Ukraine",
        "iso2": "UA",
        "admin_name": "Odeska Oblast",
        "capital": "minor",
        "population": "40155",
        "population_proper": "40155"
    },
    {
        "city": "Vyshneve",
        "lat": "50.3869",
        "lng": "30.3581",
        "country": "Ukraine",
        "iso2": "UA",
        "admin_name": "Kyivska Oblast",
        "capital": "",
        "population": "39900",
        "population_proper": "39900"
    },
    {
        "city": "Pokrov",
        "lat": "47.6533",
        "lng": "34.0842",
        "country": "Ukraine",
        "iso2": "UA",
        "admin_name": "Dnipropetrovska Oblast",
        "capital": "",
        "population": "39497",
        "population_proper": "39497"
    },
    {
        "city": "Pervomaisk",
        "lat": "48.6297",
        "lng": "38.5619",
        "country": "Ukraine",
        "iso2": "UA",
        "admin_name": "Luhanska Oblast",
        "capital": "",
        "population": "38801",
        "population_proper": "38801"
    },
    {
        "city": "Dzhankoi",
        "lat": "45.7086",
        "lng": "34.3933",
        "country": "Ukraine",
        "iso2": "UA",
        "admin_name": "Krym, Avtonomna Respublika",
        "capital": "minor",
        "population": "38714",
        "population_proper": "38714"
    },
    {
        "city": "Yuzhnoukrainsk",
        "lat": "47.8217",
        "lng": "31.1750",
        "country": "Ukraine",
        "iso2": "UA",
        "admin_name": "Mykolaivska Oblast",
        "capital": "minor",
        "population": "38560",
        "population_proper": "38560"
    },
    {
        "city": "Vasylkiv",
        "lat": "50.1775",
        "lng": "30.3217",
        "country": "Ukraine",
        "iso2": "UA",
        "admin_name": "Kyivska Oblast",
        "capital": "",
        "population": "37696",
        "population_proper": "37696"
    },
    {
        "city": "Dubno",
        "lat": "50.3931",
        "lng": "25.7350",
        "country": "Ukraine",
        "iso2": "UA",
        "admin_name": "Rivnenska Oblast",
        "capital": "minor",
        "population": "37545",
        "population_proper": "37545"
    },
    {
        "city": "Boryslav",
        "lat": "49.2881",
        "lng": "23.4267",
        "country": "Ukraine",
        "iso2": "UA",
        "admin_name": "Lvivska Oblast",
        "capital": "",
        "population": "37093",
        "population_proper": "37093"
    },
    {
        "city": "Netishyn",
        "lat": "50.3300",
        "lng": "26.6400",
        "country": "Ukraine",
        "iso2": "UA",
        "admin_name": "Khmelnytska Oblast",
        "capital": "",
        "population": "36921",
        "population_proper": "36921"
    },
    {
        "city": "Holubivske",
        "lat": "48.6375",
        "lng": "38.6433",
        "country": "Ukraine",
        "iso2": "UA",
        "admin_name": "Luhanska Oblast",
        "capital": "",
        "population": "36388",
        "population_proper": "36388"
    },
    {
        "city": "Kakhovka",
        "lat": "46.8000",
        "lng": "33.4667",
        "country": "Ukraine",
        "iso2": "UA",
        "admin_name": "Khersonska Oblast",
        "capital": "minor",
        "population": "35900",
        "population_proper": "35900"
    },
    {
        "city": "Boyarka",
        "lat": "50.3292",
        "lng": "30.2886",
        "country": "Ukraine",
        "iso2": "UA",
        "admin_name": "Kyivska Oblast",
        "capital": "",
        "population": "35411",
        "population_proper": "35411"
    },
    {
        "city": "Yasynuvata",
        "lat": "48.1167",
        "lng": "37.8333",
        "country": "Ukraine",
        "iso2": "UA",
        "admin_name": "Donetska Oblast",
        "capital": "",
        "population": "35303",
        "population_proper": "35303"
    },
    {
        "city": "Voznesensk",
        "lat": "47.5725",
        "lng": "31.3119",
        "country": "Ukraine",
        "iso2": "UA",
        "admin_name": "Mykolaivska Oblast",
        "capital": "minor",
        "population": "35243",
        "population_proper": "35243"
    },
    {
        "city": "Bucha",
        "lat": "50.5486",
        "lng": "30.2208",
        "country": "Ukraine",
        "iso2": "UA",
        "admin_name": "Kyivska Oblast",
        "capital": "minor",
        "population": "35162",
        "population_proper": "35162"
    },
    {
        "city": "Avdiivka",
        "lat": "48.1333",
        "lng": "37.7500",
        "country": "Ukraine",
        "iso2": "UA",
        "admin_name": "Donetska Oblast",
        "capital": "",
        "population": "34938",
        "population_proper": "34938"
    },
    {
        "city": "Sambir",
        "lat": "49.5167",
        "lng": "23.2000",
        "country": "Ukraine",
        "iso2": "UA",
        "admin_name": "Lvivska Oblast",
        "capital": "minor",
        "population": "34444",
        "population_proper": "34444"
    },
    {
        "city": "Toretsk",
        "lat": "48.3917",
        "lng": "37.8733",
        "country": "Ukraine",
        "iso2": "UA",
        "admin_name": "Donetska Oblast",
        "capital": "",
        "population": "34378",
        "population_proper": "34378"
    },
    {
        "city": "Zhmerynka",
        "lat": "49.0500",
        "lng": "28.1000",
        "country": "Ukraine",
        "iso2": "UA",
        "admin_name": "Vinnytska Oblast",
        "capital": "minor",
        "population": "34353",
        "population_proper": "34097"
    },
    {
        "city": "Hlukhiv",
        "lat": "51.6765",
        "lng": "33.9078",
        "country": "Ukraine",
        "iso2": "UA",
        "admin_name": "Sumska Oblast",
        "capital": "",
        "population": "33478",
        "population_proper": "33478"
    },
    {
        "city": "Obukhiv",
        "lat": "50.1109",
        "lng": "30.6269",
        "country": "Ukraine",
        "iso2": "UA",
        "admin_name": "Kyivska Oblast",
        "capital": "minor",
        "population": "33204",
        "population_proper": "33204"
    },
    {
        "city": "Chuhuiv",
        "lat": "49.8372",
        "lng": "36.6899",
        "country": "Ukraine",
        "iso2": "UA",
        "admin_name": "Kharkivska Oblast",
        "capital": "minor",
        "population": "33144",
        "population_proper": "33144"
    },
    {
        "city": "Yuzhne",
        "lat": "46.6300",
        "lng": "31.1000",
        "country": "Ukraine",
        "iso2": "UA",
        "admin_name": "Odeska Oblast",
        "capital": "",
        "population": "32100",
        "population_proper": "15587"
    },
    {
        "city": "Kostopil",
        "lat": "50.8833",
        "lng": "26.4431",
        "country": "Ukraine",
        "iso2": "UA",
        "admin_name": "Rivnenska Oblast",
        "capital": "",
        "population": "31463",
        "population_proper": "31463"
    },
    {
        "city": "Tokmak",
        "lat": "47.2514",
        "lng": "35.7058",
        "country": "Ukraine",
        "iso2": "UA",
        "admin_name": "Zaporizka Oblast",
        "capital": "minor",
        "population": "31016",
        "population_proper": "31016"
    },
    {
        "city": "Synelnykove",
        "lat": "48.3178",
        "lng": "35.5119",
        "country": "Ukraine",
        "iso2": "UA",
        "admin_name": "Dnipropetrovska Oblast",
        "capital": "minor",
        "population": "30724",
        "population_proper": "30724"
    },
    {
        "city": "Novoyavorovskoye",
        "lat": "49.9311",
        "lng": "23.5731",
        "country": "Ukraine",
        "iso2": "UA",
        "admin_name": "Lvivska Oblast",
        "capital": "",
        "population": "30723",
        "population_proper": "30723"
    },
    {
        "city": "Mohyliv-Podilskyi",
        "lat": "48.4500",
        "lng": "27.7833",
        "country": "Ukraine",
        "iso2": "UA",
        "admin_name": "Vinnytska Oblast",
        "capital": "minor",
        "population": "30589",
        "population_proper": "30186"
    },
    {
        "city": "Pervomaiskyi",
        "lat": "49.3869",
        "lng": "36.2142",
        "country": "Ukraine",
        "iso2": "UA",
        "admin_name": "Kharkivska Oblast",
        "capital": "",
        "population": "30048",
        "population_proper": "28986"
    },
    {
        "city": "Vyshhorod",
        "lat": "50.5833",
        "lng": "30.4853",
        "country": "Ukraine",
        "iso2": "UA",
        "admin_name": "Kyivska Oblast",
        "capital": "minor",
        "population": "29913",
        "population_proper": "29913"
    },
    {
        "city": "Alushta",
        "lat": "44.6672",
        "lng": "34.3978",
        "country": "Ukraine",
        "iso2": "UA",
        "admin_name": "Krym, Avtonomna Respublika",
        "capital": "",
        "population": "29668",
        "population_proper": "29668"
    },
    {
        "city": "Balakliia",
        "lat": "49.4564",
        "lng": "36.8389",
        "country": "Ukraine",
        "iso2": "UA",
        "admin_name": "Kharkivska Oblast",
        "capital": "",
        "population": "28868",
        "population_proper": "28868"
    },
    {
        "city": "Truskavets",
        "lat": "49.2806",
        "lng": "23.5050",
        "country": "Ukraine",
        "iso2": "UA",
        "admin_name": "Lvivska Oblast",
        "capital": "",
        "population": "28867",
        "population_proper": "28287"
    },
    {
        "city": "Novyi Rozdil",
        "lat": "49.4703",
        "lng": "24.1300",
        "country": "Ukraine",
        "iso2": "UA",
        "admin_name": "Lvivska Oblast",
        "capital": "",
        "population": "28745",
        "population_proper": "28745"
    },
    {
        "city": "Chortkiv",
        "lat": "49.0167",
        "lng": "25.8000",
        "country": "Ukraine",
        "iso2": "UA",
        "admin_name": "Ternopilska Oblast",
        "capital": "minor",
        "population": "28393",
        "population_proper": "15294"
    },
    {
        "city": "Pershotravensk",
        "lat": "48.3464",
        "lng": "36.4044",
        "country": "Ukraine",
        "iso2": "UA",
        "admin_name": "Dnipropetrovska Oblast",
        "capital": "",
        "population": "28363",
        "population_proper": "28363"
    },
    {
        "city": "Khust",
        "lat": "48.1814",
        "lng": "23.2978",
        "country": "Ukraine",
        "iso2": "UA",
        "admin_name": "Zakarpatska Oblast",
        "capital": "minor",
        "population": "28206",
        "population_proper": "3109"
    },
    {
        "city": "Khrestivka",
        "lat": "48.1464",
        "lng": "38.3606",
        "country": "Ukraine",
        "iso2": "UA",
        "admin_name": "Donetska Oblast",
        "capital": "",
        "population": "28149",
        "population_proper": "28149"
    },
    {
        "city": "Khmilnyk",
        "lat": "49.5569",
        "lng": "27.9572",
        "country": "Ukraine",
        "iso2": "UA",
        "admin_name": "Vinnytska Oblast",
        "capital": "minor",
        "population": "27941",
        "population_proper": "27941"
    },
    {
        "city": "Ternivka",
        "lat": "48.5231",
        "lng": "36.0826",
        "country": "Ukraine",
        "iso2": "UA",
        "admin_name": "Dnipropetrovska Oblast",
        "capital": "minor",
        "population": "27929",
        "population_proper": "27929"
    },
    {
        "city": "Zolotonosha",
        "lat": "49.6833",
        "lng": "32.0333",
        "country": "Ukraine",
        "iso2": "UA",
        "admin_name": "Cherkaska Oblast",
        "capital": "minor",
        "population": "27847",
        "population_proper": "27847"
    },
    {
        "city": "Bakhchysarai",
        "lat": "44.7528",
        "lng": "33.8608",
        "country": "Ukraine",
        "iso2": "UA",
        "admin_name": "Krym, Avtonomna Respublika",
        "capital": "minor",
        "population": "27351",
        "population_proper": "26874"
    },
    {
        "city": "Kupiansk",
        "lat": "49.7064",
        "lng": "37.6167",
        "country": "Ukraine",
        "iso2": "UA",
        "admin_name": "Kharkivska Oblast",
        "capital": "minor",
        "population": "27169",
        "population_proper": "27169"
    },
    {
        "city": "Pereyaslav-Khmel’nyts’kyy",
        "lat": "50.0650",
        "lng": "31.4450",
        "country": "Ukraine",
        "iso2": "UA",
        "admin_name": "Kyivska Oblast",
        "capital": "",
        "population": "27088",
        "population_proper": "27088"
    },
    {
        "city": "Kirovsk",
        "lat": "48.6333",
        "lng": "38.6500",
        "country": "Ukraine",
        "iso2": "UA",
        "admin_name": "Luhanska Oblast",
        "capital": "",
        "population": "26654",
        "population_proper": "26654"
    },
    {
        "city": "Sofiyivs’ka Borshchahivka",
        "lat": "50.4114",
        "lng": "30.3692",
        "country": "Ukraine",
        "iso2": "UA",
        "admin_name": "Kyivska Oblast",
        "capital": "",
        "population": "26571",
        "population_proper": "26571"
    },
    {
        "city": "Malyn",
        "lat": "50.7689",
        "lng": "29.2700",
        "country": "Ukraine",
        "iso2": "UA",
        "admin_name": "Zhytomyrska Oblast",
        "capital": "",
        "population": "26204",
        "population_proper": "25587"
    },
    {
        "city": "Perevalsk",
        "lat": "48.4333",
        "lng": "38.8167",
        "country": "Ukraine",
        "iso2": "UA",
        "admin_name": "Luhanska Oblast",
        "capital": "minor",
        "population": "26132",
        "population_proper": "26132"
    },
    {
        "city": "Haisyn",
        "lat": "48.8094",
        "lng": "29.3906",
        "country": "Ukraine",
        "iso2": "UA",
        "admin_name": "Vinnytska Oblast",
        "capital": "minor",
        "population": "25833",
        "population_proper": "25833"
    },
    {
        "city": "Yany Kapu",
        "lat": "45.9675",
        "lng": "33.8003",
        "country": "Ukraine",
        "iso2": "UA",
        "admin_name": "Krym, Avtonomna Respublika",
        "capital": "minor",
        "population": "25769",
        "population_proper": "25450"
    },
    {
        "city": "Korostyshiv",
        "lat": "50.3186",
        "lng": "29.0592",
        "country": "Ukraine",
        "iso2": "UA",
        "admin_name": "Zhytomyrska Oblast",
        "capital": "",
        "population": "25445",
        "population_proper": "24490"
    },
    {
        "city": "Vynohradiv",
        "lat": "48.1397",
        "lng": "23.0331",
        "country": "Ukraine",
        "iso2": "UA",
        "admin_name": "Zakarpatska Oblast",
        "capital": "minor",
        "population": "25403",
        "population_proper": "25403"
    },
    {
        "city": "Slavutych",
        "lat": "51.5206",
        "lng": "30.7569",
        "country": "Ukraine",
        "iso2": "UA",
        "admin_name": "Kyivska Oblast",
        "capital": "",
        "population": "25030",
        "population_proper": "25030"
    },
    {
        "city": "Oleshky",
        "lat": "46.6333",
        "lng": "32.5833",
        "country": "Ukraine",
        "iso2": "UA",
        "admin_name": "Khersonska Oblast",
        "capital": "minor",
        "population": "24639",
        "population_proper": "24639"
    },
    {
        "city": "Kaniv",
        "lat": "49.7447",
        "lng": "31.4558",
        "country": "Ukraine",
        "iso2": "UA",
        "admin_name": "Cherkaska Oblast",
        "capital": "",
        "population": "24532",
        "population_proper": "23503"
    },
    {
        "city": "Saky",
        "lat": "45.1336",
        "lng": "33.5772",
        "country": "Ukraine",
        "iso2": "UA",
        "admin_name": "Krym, Avtonomna Respublika",
        "capital": "minor",
        "population": "24282",
        "population_proper": "24282"
    },
    {
        "city": "Lebedyn",
        "lat": "50.5831",
        "lng": "34.4823",
        "country": "Ukraine",
        "iso2": "UA",
        "admin_name": "Sumska Oblast",
        "capital": "",
        "population": "24238",
        "population_proper": "24238"
    },
    {
        "city": "Zolochiv",
        "lat": "49.8075",
        "lng": "24.9031",
        "country": "Ukraine",
        "iso2": "UA",
        "admin_name": "Lvivska Oblast",
        "capital": "minor",
        "population": "23986",
        "population_proper": "23986"
    },
    {
        "city": "Selydove",
        "lat": "48.1500",
        "lng": "37.3000",
        "country": "Ukraine",
        "iso2": "UA",
        "admin_name": "Donetska Oblast",
        "capital": "",
        "population": "23793",
        "population_proper": "23793"
    },
    {
        "city": "Brody",
        "lat": "50.0781",
        "lng": "25.1542",
        "country": "Ukraine",
        "iso2": "UA",
        "admin_name": "Lvivska Oblast",
        "capital": "",
        "population": "23752",
        "population_proper": "23454"
    },
    {
        "city": "Berehove",
        "lat": "48.2025",
        "lng": "22.6375",
        "country": "Ukraine",
        "iso2": "UA",
        "admin_name": "Zakarpatska Oblast",
        "capital": "minor",
        "population": "23732",
        "population_proper": "23732"
    },
    {
        "city": "Koziatyn",
        "lat": "49.7167",
        "lng": "28.8333",
        "country": "Ukraine",
        "iso2": "UA",
        "admin_name": "Vinnytska Oblast",
        "capital": "minor",
        "population": "23610",
        "population_proper": "23610"
    },
    {
        "city": "Pesochin",
        "lat": "49.9539",
        "lng": "36.1092",
        "country": "Ukraine",
        "iso2": "UA",
        "admin_name": "Kharkivska Oblast",
        "capital": "",
        "population": "23414",
        "population_proper": "23414"
    },
    {
        "city": "Vilnohirsk",
        "lat": "48.4781",
        "lng": "34.0281",
        "country": "Ukraine",
        "iso2": "UA",
        "admin_name": "Dnipropetrovska Oblast",
        "capital": "",
        "population": "23235",
        "population_proper": "23235"
    },
    {
        "city": "Molodohvardiisk",
        "lat": "48.3444",
        "lng": "39.6583",
        "country": "Ukraine",
        "iso2": "UA",
        "admin_name": "Luhanska Oblast",
        "capital": "",
        "population": "22937",
        "population_proper": "22937"
    },
    {
        "city": "Znamianka",
        "lat": "48.7136",
        "lng": "32.6733",
        "country": "Ukraine",
        "iso2": "UA",
        "admin_name": "Kirovohradska Oblast",
        "capital": "minor",
        "population": "22936",
        "population_proper": "22936"
    },
    {
        "city": "Dokuchaievsk",
        "lat": "47.7506",
        "lng": "37.6716",
        "country": "Ukraine",
        "iso2": "UA",
        "admin_name": "Donetska Oblast",
        "capital": "",
        "population": "22907",
        "population_proper": "22907"
    },
    {
        "city": "Ladyzhyn",
        "lat": "48.6897",
        "lng": "29.2417",
        "country": "Ukraine",
        "iso2": "UA",
        "admin_name": "Vinnytska Oblast",
        "capital": "",
        "population": "22682",
        "population_proper": "22593"
    },
    {
        "city": "Nadvirna",
        "lat": "48.6333",
        "lng": "24.5833",
        "country": "Ukraine",
        "iso2": "UA",
        "admin_name": "Ivano-Frankivska Oblast",
        "capital": "minor",
        "population": "22447",
        "population_proper": "22447"
    },
    {
        "city": "Lyman",
        "lat": "48.9853",
        "lng": "37.8111",
        "country": "Ukraine",
        "iso2": "UA",
        "admin_name": "Donetska Oblast",
        "capital": "",
        "population": "22315",
        "population_proper": "22315"
    },
    {
        "city": "Merefa",
        "lat": "49.8197",
        "lng": "36.0686",
        "country": "Ukraine",
        "iso2": "UA",
        "admin_name": "Kharkivska Oblast",
        "capital": "",
        "population": "21794",
        "population_proper": "21421"
    },
    {
        "city": "Volnovakha",
        "lat": "47.5994",
        "lng": "37.4999",
        "country": "Ukraine",
        "iso2": "UA",
        "admin_name": "Donetska Oblast",
        "capital": "minor",
        "population": "21441",
        "population_proper": "21441"
    },
    {
        "city": "Bilohorodka",
        "lat": "50.4000",
        "lng": "30.2167",
        "country": "Ukraine",
        "iso2": "UA",
        "admin_name": "Kyivska Oblast",
        "capital": "",
        "population": "21367",
        "population_proper": "21367"
    },
    {
        "city": "Sukhodilsk",
        "lat": "48.3500",
        "lng": "39.7167",
        "country": "Ukraine",
        "iso2": "UA",
        "admin_name": "Luhanska Oblast",
        "capital": "",
        "population": "21324",
        "population_proper": "21324"
    },
    {
        "city": "Sokal",
        "lat": "50.4833",
        "lng": "24.2833",
        "country": "Ukraine",
        "iso2": "UA",
        "admin_name": "Lvivska Oblast",
        "capital": "",
        "population": "20986",
        "population_proper": "20986"
    },
    {
        "city": "Liubotyn",
        "lat": "49.9489",
        "lng": "35.9306",
        "country": "Ukraine",
        "iso2": "UA",
        "admin_name": "Kharkivska Oblast",
        "capital": "",
        "population": "20887",
        "population_proper": "20887"
    },
    {
        "city": "Kremenets",
        "lat": "50.1081",
        "lng": "25.7275",
        "country": "Ukraine",
        "iso2": "UA",
        "admin_name": "Ternopilska Oblast",
        "capital": "minor",
        "population": "20837",
        "population_proper": "1224"
    },
    {
        "city": "Polonne",
        "lat": "50.1167",
        "lng": "27.5167",
        "country": "Ukraine",
        "iso2": "UA",
        "admin_name": "Khmelnytska Oblast",
        "capital": "",
        "population": "20785",
        "population_proper": "20785"
    },
    {
        "city": "Dolyna",
        "lat": "48.9703",
        "lng": "24.0108",
        "country": "Ukraine",
        "iso2": "UA",
        "admin_name": "Ivano-Frankivska Oblast",
        "capital": "minor",
        "population": "20691",
        "population_proper": "20691"
    },
    {
        "city": "Stebnyk",
        "lat": "49.3000",
        "lng": "23.5667",
        "country": "Ukraine",
        "iso2": "UA",
        "admin_name": "Lvivska Oblast",
        "capital": "",
        "population": "20200",
        "population_proper": "20200"
    },
    {
        "city": "Krasnohrad",
        "lat": "49.3719",
        "lng": "35.4569",
        "country": "Ukraine",
        "iso2": "UA",
        "admin_name": "Kharkivska Oblast",
        "capital": "minor",
        "population": "20013",
        "population_proper": "20013"
    },
    {
        "city": "Trostyanets’",
        "lat": "50.4811",
        "lng": "34.9646",
        "country": "Ukraine",
        "iso2": "UA",
        "admin_name": "Sumska Oblast",
        "capital": "",
        "population": "19985",
        "population_proper": "19985"
    },
    {
        "city": "Yahotyn",
        "lat": "50.2569",
        "lng": "31.7817",
        "country": "Ukraine",
        "iso2": "UA",
        "admin_name": "Kyivska Oblast",
        "capital": "",
        "population": "19613",
        "population_proper": "19613"
    },
    {
        "city": "Okhmalynka",
        "lat": "47.5333",
        "lng": "29.4500",
        "country": "Ukraine",
        "iso2": "UA",
        "admin_name": "Odeska Oblast",
        "capital": "",
        "population": "19606",
        "population_proper": "19606"
    },
    {
        "city": "Pidhorodne",
        "lat": "48.5737",
        "lng": "35.0966",
        "country": "Ukraine",
        "iso2": "UA",
        "admin_name": "Dnipropetrovska Oblast",
        "capital": "",
        "population": "19524",
        "population_proper": "19524"
    },
    {
        "city": "Balta",
        "lat": "47.9361",
        "lng": "29.6225",
        "country": "Ukraine",
        "iso2": "UA",
        "admin_name": "Odeska Oblast",
        "capital": "minor",
        "population": "19353",
        "population_proper": "19353"
    },
    {
        "city": "Dolynska",
        "lat": "48.1111",
        "lng": "32.7648",
        "country": "Ukraine",
        "iso2": "UA",
        "admin_name": "Kirovohradska Oblast",
        "capital": "minor",
        "population": "19287",
        "population_proper": "19287"
    },
    {
        "city": "Henichesk",
        "lat": "46.1667",
        "lng": "34.8000",
        "country": "Ukraine",
        "iso2": "UA",
        "admin_name": "Khersonska Oblast",
        "capital": "minor",
        "population": "19253",
        "population_proper": "19253"
    },
    {
        "city": "Kalynivka",
        "lat": "49.4472",
        "lng": "28.5231",
        "country": "Ukraine",
        "iso2": "UA",
        "admin_name": "Vinnytska Oblast",
        "capital": "minor",
        "population": "18906",
        "population_proper": "18695"
    },
    {
        "city": "Polohy",
        "lat": "47.4796",
        "lng": "36.2611",
        "country": "Ukraine",
        "iso2": "UA",
        "admin_name": "Zaporizka Oblast",
        "capital": "minor",
        "population": "18886",
        "population_proper": "18886"
    },
    {
        "city": "Piatykhatky",
        "lat": "48.4126",
        "lng": "33.7034",
        "country": "Ukraine",
        "iso2": "UA",
        "admin_name": "Dnipropetrovska Oblast",
        "capital": "minor",
        "population": "18845",
        "population_proper": "18845"
    },
    {
        "city": "Starobilsk",
        "lat": "49.2829",
        "lng": "38.8974",
        "country": "Ukraine",
        "iso2": "UA",
        "admin_name": "Luhanska Oblast",
        "capital": "minor",
        "population": "18796",
        "population_proper": "18796"
    },
    {
        "city": "Kiliia",
        "lat": "45.4500",
        "lng": "29.2667",
        "country": "Ukraine",
        "iso2": "UA",
        "admin_name": "Odeska Oblast",
        "capital": "minor",
        "population": "18745",
        "population_proper": "18745"
    },
    {
        "city": "Vovchansk",
        "lat": "50.2881",
        "lng": "36.9461",
        "country": "Ukraine",
        "iso2": "UA",
        "admin_name": "Kharkivska Oblast",
        "capital": "minor",
        "population": "18644",
        "population_proper": "8191"
    },
    {
        "city": "Kivsharivka",
        "lat": "49.6303",
        "lng": "37.6908",
        "country": "Ukraine",
        "iso2": "UA",
        "admin_name": "Kharkivska Oblast",
        "capital": "",
        "population": "18496",
        "population_proper": "18496"
    },
    {
        "city": "Dniprorudne",
        "lat": "47.3907",
        "lng": "35.0027",
        "country": "Ukraine",
        "iso2": "UA",
        "admin_name": "Zaporizka Oblast",
        "capital": "",
        "population": "18468",
        "population_proper": "18468"
    },
    {
        "city": "Bakhmach",
        "lat": "51.1810",
        "lng": "32.8163",
        "country": "Ukraine",
        "iso2": "UA",
        "admin_name": "Chernihivska Oblast",
        "capital": "",
        "population": "18441",
        "population_proper": "18441"
    },
    {
        "city": "Kreminna",
        "lat": "49.0500",
        "lng": "38.2167",
        "country": "Ukraine",
        "iso2": "UA",
        "admin_name": "Luhanska Oblast",
        "capital": "",
        "population": "18417",
        "population_proper": "18417"
    },
    {
        "city": "Svatove",
        "lat": "49.4150",
        "lng": "38.1550",
        "country": "Ukraine",
        "iso2": "UA",
        "admin_name": "Luhanska Oblast",
        "capital": "minor",
        "population": "18417",
        "population_proper": "18417"
    },
    {
        "city": "Amvrosiivka",
        "lat": "47.7958",
        "lng": "38.4801",
        "country": "Ukraine",
        "iso2": "UA",
        "admin_name": "Donetska Oblast",
        "capital": "",
        "population": "18413",
        "population_proper": "18413"
    },
    {
        "city": "Korsun-Shevchenkivskyi",
        "lat": "49.4261",
        "lng": "31.2806",
        "country": "Ukraine",
        "iso2": "UA",
        "admin_name": "Cherkaska Oblast",
        "capital": "",
        "population": "18401",
        "population_proper": "18401"
    },
    {
        "city": "Zuhres",
        "lat": "48.0181",
        "lng": "38.2563",
        "country": "Ukraine",
        "iso2": "UA",
        "admin_name": "Donetska Oblast",
        "capital": "",
        "population": "18024",
        "population_proper": "18024"
    },
    {
        "city": "Reni",
        "lat": "45.4575",
        "lng": "28.2711",
        "country": "Ukraine",
        "iso2": "UA",
        "admin_name": "Odeska Oblast",
        "capital": "minor",
        "population": "17736",
        "population_proper": "17736"
    },
    {
        "city": "Derhachi",
        "lat": "50.1114",
        "lng": "36.1219",
        "country": "Ukraine",
        "iso2": "UA",
        "admin_name": "Kharkivska Oblast",
        "capital": "",
        "population": "17433",
        "population_proper": "17433"
    },
    {
        "city": "Bolhrad",
        "lat": "45.6855",
        "lng": "28.6134",
        "country": "Ukraine",
        "iso2": "UA",
        "admin_name": "Odeska Oblast",
        "capital": "minor",
        "population": "17400",
        "population_proper": "17400"
    },
    {
        "city": "Skadovsk",
        "lat": "46.1167",
        "lng": "32.9167",
        "country": "Ukraine",
        "iso2": "UA",
        "admin_name": "Khersonska Oblast",
        "capital": "minor",
        "population": "17344",
        "population_proper": "17344"
    },
    {
        "city": "Berezhany",
        "lat": "49.4464",
        "lng": "24.9436",
        "country": "Ukraine",
        "iso2": "UA",
        "admin_name": "Ternopilska Oblast",
        "capital": "minor",
        "population": "17316",
        "population_proper": "10610"
    },
    {
        "city": "Svalyava",
        "lat": "48.5472",
        "lng": "22.9861",
        "country": "Ukraine",
        "iso2": "UA",
        "admin_name": "Zakarpatska Oblast",
        "capital": "",
        "population": "17234",
        "population_proper": "17234"
    },
    {
        "city": "Zvenyhorodka",
        "lat": "49.0833",
        "lng": "30.9667",
        "country": "Ukraine",
        "iso2": "UA",
        "admin_name": "Cherkaska Oblast",
        "capital": "minor",
        "population": "17078",
        "population_proper": "17078"
    },
    {
        "city": "Iziaslav",
        "lat": "50.1167",
        "lng": "26.8000",
        "country": "Ukraine",
        "iso2": "UA",
        "admin_name": "Khmelnytska Oblast",
        "capital": "",
        "population": "16901",
        "population_proper": "16901"
    },
    {
        "city": "Vatutine",
        "lat": "49.0167",
        "lng": "31.0667",
        "country": "Ukraine",
        "iso2": "UA",
        "admin_name": "Cherkaska Oblast",
        "capital": "",
        "population": "16888",
        "population_proper": "16888"
    },
    {
        "city": "Sudak",
        "lat": "44.8514",
        "lng": "34.9725",
        "country": "Ukraine",
        "iso2": "UA",
        "admin_name": "Krym, Avtonomna Respublika",
        "capital": "",
        "population": "16784",
        "population_proper": "16784"
    },
    {
        "city": "Horodok",
        "lat": "49.1667",
        "lng": "26.5667",
        "country": "Ukraine",
        "iso2": "UA",
        "admin_name": "Khmelnytska Oblast",
        "capital": "",
        "population": "16516",
        "population_proper": "16516"
    },
    {
        "city": "Berezan",
        "lat": "50.3197",
        "lng": "31.4700",
        "country": "Ukraine",
        "iso2": "UA",
        "admin_name": "Kyivska Oblast",
        "capital": "",
        "population": "16506",
        "population_proper": "16506"
    },
    {
        "city": "Bilohirsk",
        "lat": "45.0544",
        "lng": "34.6022",
        "country": "Ukraine",
        "iso2": "UA",
        "admin_name": "Krym, Avtonomna Respublika",
        "capital": "minor",
        "population": "16428",
        "population_proper": "16428"
    },
    {
        "city": "Verkhivtseve",
        "lat": "48.4812",
        "lng": "34.2488",
        "country": "Ukraine",
        "iso2": "UA",
        "admin_name": "Dnipropetrovska Oblast",
        "capital": "",
        "population": "16364",
        "population_proper": "16364"
    },
    {
        "city": "Novoukrainka",
        "lat": "48.3156",
        "lng": "31.5269",
        "country": "Ukraine",
        "iso2": "UA",
        "admin_name": "Kirovohradska Oblast",
        "capital": "minor",
        "population": "16338",
        "population_proper": "16338"
    },
    {
        "city": "Kotsyubyns’ke",
        "lat": "50.4883",
        "lng": "30.3331",
        "country": "Ukraine",
        "iso2": "UA",
        "admin_name": "Kyiv, Misto",
        "capital": "",
        "population": "16337",
        "population_proper": "16337"
    },
    {
        "city": "Hostomel",
        "lat": "50.5893",
        "lng": "30.2584",
        "country": "Ukraine",
        "iso2": "UA",
        "admin_name": "Kyivska Oblast",
        "capital": "",
        "population": "16190",
        "population_proper": "16190"
    },
    {
        "city": "Horodok",
        "lat": "49.7822",
        "lng": "23.6436",
        "country": "Ukraine",
        "iso2": "UA",
        "admin_name": "Lvivska Oblast",
        "capital": "",
        "population": "16158",
        "population_proper": "16085"
    },
    {
        "city": "Bar",
        "lat": "49.0781",
        "lng": "27.6831",
        "country": "Ukraine",
        "iso2": "UA",
        "admin_name": "Vinnytska Oblast",
        "capital": "minor",
        "population": "16136",
        "population_proper": "15563"
    },
    {
        "city": "Ukrainka",
        "lat": "50.1500",
        "lng": "30.7519",
        "country": "Ukraine",
        "iso2": "UA",
        "admin_name": "Kyivska Oblast",
        "capital": "",
        "population": "16056",
        "population_proper": "16056"
    },
    {
        "city": "Chornobaivka",
        "lat": "46.7006",
        "lng": "32.5478",
        "country": "Ukraine",
        "iso2": "UA",
        "admin_name": "Khersonska Oblast",
        "capital": "",
        "population": "15984",
        "population_proper": "15984"
    },
    {
        "city": "Dunaivtsi",
        "lat": "48.8873",
        "lng": "26.8476",
        "country": "Ukraine",
        "iso2": "UA",
        "admin_name": "Khmelnytska Oblast",
        "capital": "",
        "population": "15914",
        "population_proper": "15914"
    },
    {
        "city": "Skvyra",
        "lat": "49.7333",
        "lng": "29.6833",
        "country": "Ukraine",
        "iso2": "UA",
        "admin_name": "Kyivska Oblast",
        "capital": "minor",
        "population": "15889",
        "population_proper": "15889"
    },
    {
        "city": "Taromske",
        "lat": "48.4619",
        "lng": "34.7829",
        "country": "Ukraine",
        "iso2": "UA",
        "admin_name": "Dnipropetrovska Oblast",
        "capital": "",
        "population": "15838",
        "population_proper": "15838"
    },
    {
        "city": "Yuvileine",
        "lat": "48.5531",
        "lng": "39.1742",
        "country": "Ukraine",
        "iso2": "UA",
        "admin_name": "Luhanska Oblast",
        "capital": "",
        "population": "15830",
        "population_proper": "15830"
    },
    {
        "city": "Ovruch",
        "lat": "51.3244",
        "lng": "28.8081",
        "country": "Ukraine",
        "iso2": "UA",
        "admin_name": "Zhytomyrska Oblast",
        "capital": "",
        "population": "15795",
        "population_proper": "15332"
    },
    {
        "city": "Putyvl",
        "lat": "51.3347",
        "lng": "33.8686",
        "country": "Ukraine",
        "iso2": "UA",
        "admin_name": "Sumska Oblast",
        "capital": "",
        "population": "15778",
        "population_proper": "15100"
    },
    {
        "city": "Verkhnodniprovsk",
        "lat": "48.6561",
        "lng": "34.3283",
        "country": "Ukraine",
        "iso2": "UA",
        "admin_name": "Dnipropetrovska Oblast",
        "capital": "minor",
        "population": "15749",
        "population_proper": "15749"
    },
    {
        "city": "Vynnyky",
        "lat": "49.8156",
        "lng": "24.1297",
        "country": "Ukraine",
        "iso2": "UA",
        "admin_name": "Lvivska Oblast",
        "capital": "",
        "population": "15723",
        "population_proper": "15723"
    },
    {
        "city": "Ostroh",
        "lat": "50.3333",
        "lng": "26.5167",
        "country": "Ukraine",
        "iso2": "UA",
        "admin_name": "Rivnenska Oblast",
        "capital": "",
        "population": "15642",
        "population_proper": "15642"
    },
    {
        "city": "Rakhiv",
        "lat": "48.0500",
        "lng": "24.2167",
        "country": "Ukraine",
        "iso2": "UA",
        "admin_name": "Zakarpatska Oblast",
        "capital": "minor",
        "population": "15621",
        "population_proper": "15621"
    },
    {
        "city": "Bohodukhiv",
        "lat": "50.1608",
        "lng": "35.5164",
        "country": "Ukraine",
        "iso2": "UA",
        "admin_name": "Kharkivska Oblast",
        "capital": "minor",
        "population": "15576",
        "population_proper": "14882"
    },
    {
        "city": "Ilovaisk",
        "lat": "47.9250",
        "lng": "38.1950",
        "country": "Ukraine",
        "iso2": "UA",
        "admin_name": "Donetska Oblast",
        "capital": "",
        "population": "15447",
        "population_proper": "15447"
    },
    {
        "city": "Chervonopartyzansk",
        "lat": "48.0833",
        "lng": "39.7833",
        "country": "Ukraine",
        "iso2": "UA",
        "admin_name": "Luhanska Oblast",
        "capital": "",
        "population": "15218",
        "population_proper": "15218"
    },
    {
        "city": "Hola Prystan",
        "lat": "46.5167",
        "lng": "32.5167",
        "country": "Ukraine",
        "iso2": "UA",
        "admin_name": "Khersonska Oblast",
        "capital": "minor",
        "population": "15163",
        "population_proper": "15163"
    },
    {
        "city": "Tulchyn",
        "lat": "48.6744",
        "lng": "28.8497",
        "country": "Ukraine",
        "iso2": "UA",
        "admin_name": "Vinnytska Oblast",
        "capital": "minor",
        "population": "15051",
        "population_proper": "14668"
    },
    {
        "city": "Vil’nyans’k",
        "lat": "47.9445",
        "lng": "35.4331",
        "country": "Ukraine",
        "iso2": "UA",
        "admin_name": "Zaporizka Oblast",
        "capital": "",
        "population": "15044",
        "population_proper": "15044"
    },
    {
        "city": "Burshtyn",
        "lat": "49.2600",
        "lng": "24.6350",
        "country": "Ukraine",
        "iso2": "UA",
        "admin_name": "Ivano-Frankivska Oblast",
        "capital": "",
        "population": "15039",
        "population_proper": "15039"
    },
    {
        "city": "Novyi Buh",
        "lat": "47.6833",
        "lng": "32.5000",
        "country": "Ukraine",
        "iso2": "UA",
        "admin_name": "Mykolaivska Oblast",
        "capital": "minor",
        "population": "15003",
        "population_proper": "15003"
    },
    {
        "city": "Krasnohorivka",
        "lat": "48.0116",
        "lng": "37.5041",
        "country": "Ukraine",
        "iso2": "UA",
        "admin_name": "Donetska Oblast",
        "capital": "",
        "population": "14917",
        "population_proper": "14917"
    },
    {
        "city": "Mykolaiv",
        "lat": "49.5247",
        "lng": "23.9789",
        "country": "Ukraine",
        "iso2": "UA",
        "admin_name": "Lvivska Oblast",
        "capital": "minor",
        "population": "14915",
        "population_proper": "14915"
    },
    {
        "city": "Vuhledar",
        "lat": "47.7794",
        "lng": "37.2475",
        "country": "Ukraine",
        "iso2": "UA",
        "admin_name": "Donetska Oblast",
        "capital": "",
        "population": "14822",
        "population_proper": "14822"
    },
    {
        "city": "Ochakiv",
        "lat": "46.6186",
        "lng": "31.5392",
        "country": "Ukraine",
        "iso2": "UA",
        "admin_name": "Mykolaivska Oblast",
        "capital": "minor",
        "population": "14705",
        "population_proper": "14705"
    },
    {
        "city": "Hulyaypole",
        "lat": "47.6644",
        "lng": "36.2632",
        "country": "Ukraine",
        "iso2": "UA",
        "admin_name": "Zaporizka Oblast",
        "capital": "",
        "population": "14678",
        "population_proper": "13446"
    },
    {
        "city": "Radomyshl",
        "lat": "50.4947",
        "lng": "29.2333",
        "country": "Ukraine",
        "iso2": "UA",
        "admin_name": "Zhytomyrska Oblast",
        "capital": "minor",
        "population": "14607",
        "population_proper": "13973"
    },
    {
        "city": "Stanytsia Luhanska",
        "lat": "48.6449",
        "lng": "39.4958",
        "country": "Ukraine",
        "iso2": "UA",
        "admin_name": "Luhanska Oblast",
        "capital": "",
        "population": "14543",
        "population_proper": "14543"
    },
    {
        "city": "Orikhiv",
        "lat": "47.5677",
        "lng": "35.7849",
        "country": "Ukraine",
        "iso2": "UA",
        "admin_name": "Zaporizka Oblast",
        "capital": "",
        "population": "14479",
        "population_proper": "14479"
    },
    {
        "city": "Zolote",
        "lat": "48.6833",
        "lng": "38.5167",
        "country": "Ukraine",
        "iso2": "UA",
        "admin_name": "Luhanska Oblast",
        "capital": "",
        "population": "14376",
        "population_proper": "14376"
    },
    {
        "city": "Sadovoye",
        "lat": "46.1269",
        "lng": "30.3850",
        "country": "Ukraine",
        "iso2": "UA",
        "admin_name": "Odeska Oblast",
        "capital": "",
        "population": "14321",
        "population_proper": "14321"
    },
    {
        "city": "Novohrodivka",
        "lat": "48.2000",
        "lng": "37.3394",
        "country": "Ukraine",
        "iso2": "UA",
        "admin_name": "Donetska Oblast",
        "capital": "",
        "population": "14300",
        "population_proper": "14300"
    },
    {
        "city": "Storozhynets",
        "lat": "48.1597",
        "lng": "25.7150",
        "country": "Ukraine",
        "iso2": "UA",
        "admin_name": "Chernivetska Oblast",
        "capital": "minor",
        "population": "14138",
        "population_proper": "14138"
    },
    {
        "city": "Kivertsi",
        "lat": "50.8331",
        "lng": "25.4614",
        "country": "Ukraine",
        "iso2": "UA",
        "admin_name": "Volynska Oblast",
        "capital": "",
        "population": "14050",
        "population_proper": "13917"
    },
    {
        "city": "Nyzhnia Krynka",
        "lat": "48.1144",
        "lng": "38.1606",
        "country": "Ukraine",
        "iso2": "UA",
        "admin_name": "Donetska Oblast",
        "capital": "",
        "population": "13927",
        "population_proper": "13927"
    },
    {
        "city": "Zhashkiv",
        "lat": "49.2500",
        "lng": "30.1000",
        "country": "Ukraine",
        "iso2": "UA",
        "admin_name": "Cherkaska Oblast",
        "capital": "",
        "population": "13853",
        "population_proper": "13853"
    },
    {
        "city": "Zhovkva",
        "lat": "50.0667",
        "lng": "23.9667",
        "country": "Ukraine",
        "iso2": "UA",
        "admin_name": "Lvivska Oblast",
        "capital": "",
        "population": "13852",
        "population_proper": "13852"
    },
    {
        "city": "Horodyshche",
        "lat": "49.2925",
        "lng": "31.4581",
        "country": "Ukraine",
        "iso2": "UA",
        "admin_name": "Cherkaska Oblast",
        "capital": "minor",
        "population": "13799",
        "population_proper": "13799"
    },
    {
        "city": "Apostolove",
        "lat": "47.6595",
        "lng": "33.7170",
        "country": "Ukraine",
        "iso2": "UA",
        "admin_name": "Dnipropetrovska Oblast",
        "capital": "minor",
        "population": "13792",
        "population_proper": "13246"
    },
    {
        "city": "Bunhe",
        "lat": "48.2206",
        "lng": "38.2739",
        "country": "Ukraine",
        "iso2": "UA",
        "admin_name": "Donetska Oblast",
        "capital": "",
        "population": "13633",
        "population_proper": "13633"
    },
    {
        "city": "Solonytsivka",
        "lat": "49.9942",
        "lng": "36.0264",
        "country": "Ukraine",
        "iso2": "UA",
        "admin_name": "Kharkivska Oblast",
        "capital": "",
        "population": "13626",
        "population_proper": "13626"
    },
    {
        "city": "Talne",
        "lat": "48.8863",
        "lng": "30.7027",
        "country": "Ukraine",
        "iso2": "UA",
        "admin_name": "Cherkaska Oblast",
        "capital": "",
        "population": "13558",
        "population_proper": "13558"
    },
    {
        "city": "Kaharlyk",
        "lat": "49.8522",
        "lng": "30.8092",
        "country": "Ukraine",
        "iso2": "UA",
        "admin_name": "Kyivska Oblast",
        "capital": "minor",
        "population": "13544",
        "population_proper": "13544"
    },
    {
        "city": "Petrovske",
        "lat": "48.2833",
        "lng": "38.8833",
        "country": "Ukraine",
        "iso2": "UA",
        "admin_name": "Luhanska Oblast",
        "capital": "",
        "population": "13500",
        "population_proper": "13500"
    },
    {
        "city": "Zelenodolsk",
        "lat": "47.5631",
        "lng": "33.6524",
        "country": "Ukraine",
        "iso2": "UA",
        "admin_name": "Dnipropetrovska Oblast",
        "capital": "",
        "population": "13349",
        "population_proper": "13349"
    },
    {
        "city": "Nosivka",
        "lat": "50.9300",
        "lng": "31.5800",
        "country": "Ukraine",
        "iso2": "UA",
        "admin_name": "Chernihivska Oblast",
        "capital": "",
        "population": "13310",
        "population_proper": "13310"
    },
    {
        "city": "Berezne",
        "lat": "51.0000",
        "lng": "26.7500",
        "country": "Ukraine",
        "iso2": "UA",
        "admin_name": "Rivnenska Oblast",
        "capital": "",
        "population": "13285",
        "population_proper": "13285"
    },
    {
        "city": "Terebovlya",
        "lat": "49.3000",
        "lng": "25.7000",
        "country": "Ukraine",
        "iso2": "UA",
        "admin_name": "Ternopilska Oblast",
        "capital": "",
        "population": "13279",
        "population_proper": "13279"
    },
    {
        "city": "Borodyanka",
        "lat": "50.6474",
        "lng": "29.9258",
        "country": "Ukraine",
        "iso2": "UA",
        "admin_name": "Kyivska Oblast",
        "capital": "",
        "population": "13230",
        "population_proper": "13230"
    },
    {
        "city": "Slobozhanske",
        "lat": "48.5342",
        "lng": "35.0749",
        "country": "Ukraine",
        "iso2": "UA",
        "admin_name": "Dnipropetrovska Oblast",
        "capital": "",
        "population": "13221",
        "population_proper": "13221"
    },
    {
        "city": "Kamianka",
        "lat": "49.0333",
        "lng": "32.1000",
        "country": "Ukraine",
        "iso2": "UA",
        "admin_name": "Cherkaska Oblast",
        "capital": "",
        "population": "13203",
        "population_proper": "13203"
    },
    {
        "city": "Vasylivka",
        "lat": "47.4435",
        "lng": "35.2802",
        "country": "Ukraine",
        "iso2": "UA",
        "admin_name": "Zaporizka Oblast",
        "capital": "minor",
        "population": "13166",
        "population_proper": "13166"
    },
    {
        "city": "Velykodolynske",
        "lat": "46.3425",
        "lng": "30.5653",
        "country": "Ukraine",
        "iso2": "UA",
        "admin_name": "Odeska Oblast",
        "capital": "",
        "population": "13036",
        "population_proper": "13036"
    },
    {
        "city": "Tetiiv",
        "lat": "49.3708",
        "lng": "29.6900",
        "country": "Ukraine",
        "iso2": "UA",
        "admin_name": "Kyivska Oblast",
        "capital": "minor",
        "population": "13015",
        "population_proper": "13015"
    },
    {
        "city": "Rozhyshche",
        "lat": "50.9131",
        "lng": "25.2700",
        "country": "Ukraine",
        "iso2": "UA",
        "admin_name": "Volynska Oblast",
        "capital": "",
        "population": "12953",
        "population_proper": "12584"
    },
    {
        "city": "Yavoriv",
        "lat": "49.9469",
        "lng": "23.3931",
        "country": "Ukraine",
        "iso2": "UA",
        "admin_name": "Lvivska Oblast",
        "capital": "minor",
        "population": "12888",
        "population_proper": "12785"
    },
    {
        "city": "Novhorod-Siverskyi",
        "lat": "51.9972",
        "lng": "33.2667",
        "country": "Ukraine",
        "iso2": "UA",
        "admin_name": "Chernihivska Oblast",
        "capital": "minor",
        "population": "12862",
        "population_proper": "12647"
    },
    {
        "city": "Antonivka",
        "lat": "46.6791",
        "lng": "32.7228",
        "country": "Ukraine",
        "iso2": "UA",
        "admin_name": "Khersonska Oblast",
        "capital": "",
        "population": "12812",
        "population_proper": "12812"
    },
    {
        "city": "Bershad",
        "lat": "48.3728",
        "lng": "29.5325",
        "country": "Ukraine",
        "iso2": "UA",
        "admin_name": "Vinnytska Oblast",
        "capital": "minor",
        "population": "12795",
        "population_proper": "12466"
    },
    {
        "city": "Perehinske",
        "lat": "48.8103",
        "lng": "24.1819",
        "country": "Ukraine",
        "iso2": "UA",
        "admin_name": "Ivano-Frankivska Oblast",
        "capital": "",
        "population": "12762",
        "population_proper": "12762"
    },
    {
        "city": "Hvardiiske",
        "lat": "45.1142",
        "lng": "34.0142",
        "country": "Ukraine",
        "iso2": "UA",
        "admin_name": "Krym, Avtonomna Respublika",
        "capital": "",
        "population": "12711",
        "population_proper": "12711"
    },
    {
        "city": "Kamianka-Dniprovska",
        "lat": "47.4922",
        "lng": "34.4106",
        "country": "Ukraine",
        "iso2": "UA",
        "admin_name": "Zaporizka Oblast",
        "capital": "minor",
        "population": "12638",
        "population_proper": "12638"
    },
    {
        "city": "Shchastia",
        "lat": "48.7381",
        "lng": "39.2311",
        "country": "Ukraine",
        "iso2": "UA",
        "admin_name": "Luhanska Oblast",
        "capital": "",
        "population": "12629",
        "population_proper": "12629"
    },
    {
        "city": "Koriukivka",
        "lat": "51.7753",
        "lng": "32.2497",
        "country": "Ukraine",
        "iso2": "UA",
        "admin_name": "Chernihivska Oblast",
        "capital": "minor",
        "population": "12539",
        "population_proper": "12539"
    },
    {
        "city": "Kamin-Kashyrskyi",
        "lat": "51.6242",
        "lng": "24.9606",
        "country": "Ukraine",
        "iso2": "UA",
        "admin_name": "Volynska Oblast",
        "capital": "minor",
        "population": "12519",
        "population_proper": "12519"
    },
    {
        "city": "Buchach",
        "lat": "49.0647",
        "lng": "25.3872",
        "country": "Ukraine",
        "iso2": "UA",
        "admin_name": "Ternopilska Oblast",
        "capital": "",
        "population": "12511",
        "population_proper": "12511"
    },
    {
        "city": "Hnivan",
        "lat": "49.0833",
        "lng": "28.3500",
        "country": "Ukraine",
        "iso2": "UA",
        "admin_name": "Vinnytska Oblast",
        "capital": "",
        "population": "12314",
        "population_proper": "12314"
    },
    {
        "city": "Beryslav",
        "lat": "46.8333",
        "lng": "33.4167",
        "country": "Ukraine",
        "iso2": "UA",
        "admin_name": "Khersonska Oblast",
        "capital": "minor",
        "population": "12123",
        "population_proper": "12123"
    },
    {
        "city": "Uzyn",
        "lat": "49.8242",
        "lng": "30.4425",
        "country": "Ukraine",
        "iso2": "UA",
        "admin_name": "Kyivska Oblast",
        "capital": "",
        "population": "12077",
        "population_proper": "12077"
    },
    {
        "city": "Snihurivka",
        "lat": "47.0708",
        "lng": "32.7997",
        "country": "Ukraine",
        "iso2": "UA",
        "admin_name": "Mykolaivska Oblast",
        "capital": "minor",
        "population": "12045",
        "population_proper": "12045"
    },
    {
        "city": "Bilovodsk",
        "lat": "49.2076",
        "lng": "39.5913",
        "country": "Ukraine",
        "iso2": "UA",
        "admin_name": "Luhanska Oblast",
        "capital": "minor",
        "population": "12000",
        "population_proper": "12000"
    },
    {
        "city": "Mykhailivka",
        "lat": "47.2717",
        "lng": "35.2248",
        "country": "Ukraine",
        "iso2": "UA",
        "admin_name": "Zaporizka Oblast",
        "capital": "minor",
        "population": "11949",
        "population_proper": "11949"
    },
    {
        "city": "Zhdanivka",
        "lat": "48.1500",
        "lng": "38.2500",
        "country": "Ukraine",
        "iso2": "UA",
        "admin_name": "Donetska Oblast",
        "capital": "",
        "population": "11913",
        "population_proper": "11913"
    },
    {
        "city": "Horodnia",
        "lat": "51.8924",
        "lng": "31.5954",
        "country": "Ukraine",
        "iso2": "UA",
        "admin_name": "Chernihivska Oblast",
        "capital": "",
        "population": "11852",
        "population_proper": "11852"
    },
    {
        "city": "Ukrainsk",
        "lat": "48.1000",
        "lng": "37.3667",
        "country": "Ukraine",
        "iso2": "UA",
        "admin_name": "Donetska Oblast",
        "capital": "",
        "population": "11824",
        "population_proper": "11824"
    },
    {
        "city": "Baranivka",
        "lat": "50.3000",
        "lng": "27.6667",
        "country": "Ukraine",
        "iso2": "UA",
        "admin_name": "Zhytomyrska Oblast",
        "capital": "",
        "population": "11765",
        "population_proper": "11765"
    },
    {
        "city": "Bilopillya",
        "lat": "51.1474",
        "lng": "34.3025",
        "country": "Ukraine",
        "iso2": "UA",
        "admin_name": "Sumska Oblast",
        "capital": "",
        "population": "11743",
        "population_proper": "11743"
    },
    {
        "city": "Ovidiopol",
        "lat": "46.2667",
        "lng": "30.4333",
        "country": "Ukraine",
        "iso2": "UA",
        "admin_name": "Odeska Oblast",
        "capital": "minor",
        "population": "11741",
        "population_proper": "11741"
    },
    {
        "city": "Vasylkivka",
        "lat": "48.2084",
        "lng": "36.0253",
        "country": "Ukraine",
        "iso2": "UA",
        "admin_name": "Dnipropetrovska Oblast",
        "capital": "",
        "population": "11738",
        "population_proper": "11738"
    },
    {
        "city": "Nemyriv",
        "lat": "48.9794",
        "lng": "28.8439",
        "country": "Ukraine",
        "iso2": "UA",
        "admin_name": "Vinnytska Oblast",
        "capital": "minor",
        "population": "11697",
        "population_proper": "11563"
    },
    {
        "city": "Prymorsk",
        "lat": "46.7353",
        "lng": "36.3473",
        "country": "Ukraine",
        "iso2": "UA",
        "admin_name": "Zaporizka Oblast",
        "capital": "minor",
        "population": "11679",
        "population_proper": "11679"
    },
    {
        "city": "Mena",
        "lat": "51.5167",
        "lng": "32.2167",
        "country": "Ukraine",
        "iso2": "UA",
        "admin_name": "Chernihivska Oblast",
        "capital": "",
        "population": "11670",
        "population_proper": "7246"
    },
    {
        "city": "Mala Vyska",
        "lat": "48.6500",
        "lng": "31.6333",
        "country": "Ukraine",
        "iso2": "UA",
        "admin_name": "Kirovohradska Oblast",
        "capital": "minor",
        "population": "11614",
        "population_proper": "11614"
    },
    {
        "city": "Kalmiuske",
        "lat": "47.6667",
        "lng": "38.0667",
        "country": "Ukraine",
        "iso2": "UA",
        "admin_name": "Donetska Oblast",
        "capital": "minor",
        "population": "11603",
        "population_proper": "11603"
    },
    {
        "city": "Lokhvytsya",
        "lat": "50.3610",
        "lng": "33.2652",
        "country": "Ukraine",
        "iso2": "UA",
        "admin_name": "Poltavska Oblast",
        "capital": "minor",
        "population": "11485",
        "population_proper": "11485"
    },
    {
        "city": "Yakymivka",
        "lat": "46.6977",
        "lng": "35.1554",
        "country": "Ukraine",
        "iso2": "UA",
        "admin_name": "Zaporizka Oblast",
        "capital": "minor",
        "population": "11481",
        "population_proper": "11481"
    },
    {
        "city": "Myronivka",
        "lat": "49.6500",
        "lng": "30.9833",
        "country": "Ukraine",
        "iso2": "UA",
        "admin_name": "Kyivska Oblast",
        "capital": "minor",
        "population": "11478",
        "population_proper": "11478"
    },
    {
        "city": "Vakhrusheve",
        "lat": "48.1667",
        "lng": "38.8333",
        "country": "Ukraine",
        "iso2": "UA",
        "admin_name": "Luhanska Oblast",
        "capital": "",
        "population": "11421",
        "population_proper": "11421"
    },
    {
        "city": "Snovsk",
        "lat": "51.8203",
        "lng": "31.9508",
        "country": "Ukraine",
        "iso2": "UA",
        "admin_name": "Chernihivska Oblast",
        "capital": "",
        "population": "11390",
        "population_proper": "10825"
    },
    {
        "city": "Hirnyk",
        "lat": "48.0500",
        "lng": "37.3667",
        "country": "Ukraine",
        "iso2": "UA",
        "admin_name": "Donetska Oblast",
        "capital": "",
        "population": "11378",
        "population_proper": "11378"
    },
    {
        "city": "Svitlodarsk",
        "lat": "48.4358",
        "lng": "38.2164",
        "country": "Ukraine",
        "iso2": "UA",
        "admin_name": "Donetska Oblast",
        "capital": "",
        "population": "11281",
        "population_proper": "11281"
    },
    {
        "city": "Illintsi",
        "lat": "49.1000",
        "lng": "29.2000",
        "country": "Ukraine",
        "iso2": "UA",
        "admin_name": "Vinnytska Oblast",
        "capital": "minor",
        "population": "11270",
        "population_proper": "11185"
    },
    {
        "city": "Sosnivka",
        "lat": "50.2946",
        "lng": "24.2525",
        "country": "Ukraine",
        "iso2": "UA",
        "admin_name": "Lvivska Oblast",
        "capital": "",
        "population": "11058",
        "population_proper": "11058"
    },
    {
        "city": "Chornomorske",
        "lat": "45.5019",
        "lng": "32.7025",
        "country": "Ukraine",
        "iso2": "UA",
        "admin_name": "Krym, Avtonomna Respublika",
        "capital": "minor",
        "population": "11039",
        "population_proper": "11039"
    },
    {
        "city": "Zhydachiv",
        "lat": "49.3833",
        "lng": "24.1333",
        "country": "Ukraine",
        "iso2": "UA",
        "admin_name": "Lvivska Oblast",
        "capital": "minor",
        "population": "10962",
        "population_proper": "10962"
    },
    {
        "city": "Rokytne",
        "lat": "49.6897",
        "lng": "30.4751",
        "country": "Ukraine",
        "iso2": "UA",
        "admin_name": "Kyivska Oblast",
        "capital": "minor",
        "population": "10938",
        "population_proper": "10938"
    },
    {
        "city": "Bobrynets",
        "lat": "48.0578",
        "lng": "32.1581",
        "country": "Ukraine",
        "iso2": "UA",
        "admin_name": "Kirovohradska Oblast",
        "capital": "minor",
        "population": "10898",
        "population_proper": "10898"
    },
    {
        "city": "Bobrovytsia",
        "lat": "50.7424",
        "lng": "31.3860",
        "country": "Ukraine",
        "iso2": "UA",
        "admin_name": "Chernihivska Oblast",
        "capital": "",
        "population": "10894",
        "population_proper": "10894"
    },
    {
        "city": "Nova Vodolaha",
        "lat": "49.7197",
        "lng": "35.8772",
        "country": "Ukraine",
        "iso2": "UA",
        "admin_name": "Kharkivska Oblast",
        "capital": "",
        "population": "10881",
        "population_proper": "10881"
    },
    {
        "city": "Manevychi",
        "lat": "51.2925",
        "lng": "25.5503",
        "country": "Ukraine",
        "iso2": "UA",
        "admin_name": "Volynska Oblast",
        "capital": "",
        "population": "10825",
        "population_proper": "10825"
    },
    {
        "city": "Hrebinka",
        "lat": "50.1180",
        "lng": "32.4396",
        "country": "Ukraine",
        "iso2": "UA",
        "admin_name": "Poltavska Oblast",
        "capital": "",
        "population": "10805",
        "population_proper": "10805"
    },
    {
        "city": "Borshchiv",
        "lat": "48.8024",
        "lng": "26.0400",
        "country": "Ukraine",
        "iso2": "UA",
        "admin_name": "Ternopilska Oblast",
        "capital": "",
        "population": "10803",
        "population_proper": "10803"
    },
    {
        "city": "Yampil",
        "lat": "48.2450",
        "lng": "28.2778",
        "country": "Ukraine",
        "iso2": "UA",
        "admin_name": "Vinnytska Oblast",
        "capital": "minor",
        "population": "10787",
        "population_proper": "10787"
    },
    {
        "city": "Baryshivka",
        "lat": "50.3703",
        "lng": "31.3286",
        "country": "Ukraine",
        "iso2": "UA",
        "admin_name": "Kyivska Oblast",
        "capital": "",
        "population": "10783",
        "population_proper": "10783"
    },
    {
        "city": "Kurman",
        "lat": "45.4978",
        "lng": "34.2950",
        "country": "Ukraine",
        "iso2": "UA",
        "admin_name": "Krym, Avtonomna Respublika",
        "capital": "minor",
        "population": "10766",
        "population_proper": "10766"
    },
    {
        "city": "Khrystynivka",
        "lat": "48.8333",
        "lng": "29.9667",
        "country": "Ukraine",
        "iso2": "UA",
        "admin_name": "Cherkaska Oblast",
        "capital": "",
        "population": "10762",
        "population_proper": "10762"
    },
    {
        "city": "Ichnia",
        "lat": "50.8500",
        "lng": "32.4000",
        "country": "Ukraine",
        "iso2": "UA",
        "admin_name": "Chernihivska Oblast",
        "capital": "",
        "population": "10709",
        "population_proper": "10709"
    },
    {
        "city": "Novotroitske",
        "lat": "46.3544",
        "lng": "34.3361",
        "country": "Ukraine",
        "iso2": "UA",
        "admin_name": "Khersonska Oblast",
        "capital": "minor",
        "population": "10647",
        "population_proper": "10647"
    },
    {
        "city": "Bolekhiv",
        "lat": "49.0669",
        "lng": "23.8514",
        "country": "Ukraine",
        "iso2": "UA",
        "admin_name": "Ivano-Frankivska Oblast",
        "capital": "",
        "population": "10476",
        "population_proper": "10476"
    },
    {
        "city": "Lyuboml’",
        "lat": "51.2158",
        "lng": "24.0408",
        "country": "Ukraine",
        "iso2": "UA",
        "admin_name": "Volynska Oblast",
        "capital": "",
        "population": "10466",
        "population_proper": "10421"
    },
    {
        "city": "Novodnistrovsk",
        "lat": "48.5778",
        "lng": "27.4414",
        "country": "Ukraine",
        "iso2": "UA",
        "admin_name": "Chernivetska Oblast",
        "capital": "",
        "population": "10463",
        "population_proper": "10463"
    },
    {
        "city": "Olevsk",
        "lat": "51.2278",
        "lng": "27.6481",
        "country": "Ukraine",
        "iso2": "UA",
        "admin_name": "Zhytomyrska Oblast",
        "capital": "minor",
        "population": "10457",
        "population_proper": "10226"
    },
    {
        "city": "Ivankiv",
        "lat": "50.9328",
        "lng": "29.9047",
        "country": "Ukraine",
        "iso2": "UA",
        "admin_name": "Kyivska Oblast",
        "capital": "",
        "population": "10439",
        "population_proper": "10439"
    },
    {
        "city": "Tavriisk",
        "lat": "46.7559",
        "lng": "33.4247",
        "country": "Ukraine",
        "iso2": "UA",
        "admin_name": "Khersonska Oblast",
        "capital": "",
        "population": "10360",
        "population_proper": "10360"
    },
    {
        "city": "Krasnoilsk",
        "lat": "48.0167",
        "lng": "25.5833",
        "country": "Ukraine",
        "iso2": "UA",
        "admin_name": "Chernivetska Oblast",
        "capital": "",
        "population": "10351",
        "population_proper": "10351"
    },
    {
        "city": "Sartana",
        "lat": "47.1708",
        "lng": "37.6954",
        "country": "Ukraine",
        "iso2": "UA",
        "admin_name": "Donetska Oblast",
        "capital": "",
        "population": "10350",
        "population_proper": "10350"
    },
    {
        "city": "Letychiv",
        "lat": "49.3833",
        "lng": "27.6167",
        "country": "Ukraine",
        "iso2": "UA",
        "admin_name": "Khmelnytska Oblast",
        "capital": "",
        "population": "10335",
        "population_proper": "10335"
    },
    {
        "city": "Haspra",
        "lat": "44.4361",
        "lng": "34.1106",
        "country": "Ukraine",
        "iso2": "UA",
        "admin_name": "Krym, Avtonomna Respublika",
        "capital": "",
        "population": "10310",
        "population_proper": "10310"
    },
    {
        "city": "Oster",
        "lat": "50.9486",
        "lng": "30.8811",
        "country": "Ukraine",
        "iso2": "UA",
        "admin_name": "Chernihivska Oblast",
        "capital": "",
        "population": "10245",
        "population_proper": "5655"
    },
    {
        "city": "Novgorodskoye",
        "lat": "48.3328",
        "lng": "37.8369",
        "country": "Ukraine",
        "iso2": "UA",
        "admin_name": "Donetska Oblast",
        "capital": "",
        "population": "10227",
        "population_proper": "9917"
    },
    {
        "city": "Borzna",
        "lat": "51.2539",
        "lng": "32.4261",
        "country": "Ukraine",
        "iso2": "UA",
        "admin_name": "Chernihivska Oblast",
        "capital": "",
        "population": "10205",
        "population_proper": "10205"
    },
    {
        "city": "Shyroke",
        "lat": "47.6882",
        "lng": "33.2654",
        "country": "Ukraine",
        "iso2": "UA",
        "admin_name": "Dnipropetrovska Oblast",
        "capital": "minor",
        "population": "10202",
        "population_proper": "10202"
    },
    {
        "city": "Inkerman",
        "lat": "44.6142",
        "lng": "33.6083",
        "country": "Ukraine",
        "iso2": "UA",
        "admin_name": "Sevastopol, Misto",
        "capital": "",
        "population": "10196",
        "population_proper": "10196"
    },
    {
        "city": "Tarashcha",
        "lat": "49.5500",
        "lng": "30.5000",
        "country": "Ukraine",
        "iso2": "UA",
        "admin_name": "Kyivska Oblast",
        "capital": "minor",
        "population": "10195",
        "population_proper": "10195"
    },
    {
        "city": "Radyvyliv",
        "lat": "50.1286",
        "lng": "25.2644",
        "country": "Ukraine",
        "iso2": "UA",
        "admin_name": "Rivnenska Oblast",
        "capital": "",
        "population": "10190",
        "population_proper": "10190"
    },
    {
        "city": "Korolevo",
        "lat": "48.1500",
        "lng": "23.1333",
        "country": "Ukraine",
        "iso2": "UA",
        "admin_name": "Zakarpatska Oblast",
        "capital": "",
        "population": "10165",
        "population_proper": "10165"
    },